[
    {
        "id": "4017",
        "name": "Andhra Pradesh",
        "country_id": "101",
        "country_code": "IN",
        "country_name": "India",
        "state_code": "AP",
        "type": "state",
        "latitude": "15.91289980",
        "longitude": "79.73998750",
        "location": "POINT(79.73998750 15.91289980)"
    },
    {
        "id": "4024",
        "name": "Arunachal Pradesh",
        "country_id": "101",
        "country_code": "IN",
        "country_name": "India",
        "state_code": "AR",
        "type": "state",
        "latitude": "28.21799940",
        "longitude": "94.72775280",
        "location": "POINT(94.72775280 28.21799940)"
    },
    {
        "id": "4027",
        "name": "Assam",
        "country_id": "101",
        "country_code": "IN",
        "country_name": "India",
        "state_code": "AS",
        "type": "state",
        "latitude": "26.20060430",
        "longitude": "92.93757390",
        "location": "POINT(92.93757390 26.20060430)"
    },
    {
        "id": "4037",
        "name": "Bihar",
        "country_id": "101",
        "country_code": "IN",
        "country_name": "India",
        "state_code": "BR",
        "type": "state",
        "latitude": "25.09607420",
        "longitude": "85.31311940",
        "location": "POINT(85.31311940 25.09607420)"
    },
    {
        "id": "4040",
        "name": "Chhattisgarh",
        "country_id": "101",
        "country_code": "IN",
        "country_name": "India",
        "state_code": "CT",
        "type": "state",
        "latitude": "21.27865670",
        "longitude": "81.86614420",
        "location": "POINT(81.86614420 21.27865670)"
    },
    {
        "id": "4021",
        "name": "Delhi",
        "country_id": "101",
        "country_code": "IN",
        "country_name": "India",
        "state_code": "DL",
        "type": "Union territory",
        "latitude": "28.70405920",
        "longitude": "77.10249020",
        "location": "POINT(77.10249020 28.70405920)"
    },
    {
        "id": "4009",
        "name": "Goa",
        "country_id": "101",
        "country_code": "IN",
        "country_name": "India",
        "state_code": "GA",
        "type": "state",
        "latitude": "15.29932650",
        "longitude": "74.12399600",
        "location": "POINT(74.12399600 15.29932650)"
    },
    {
        "id": "4030",
        "name": "Gujarat",
        "country_id": "101",
        "country_code": "IN",
        "country_name": "India",
        "state_code": "GJ",
        "type": "state",
        "latitude": "22.25865200",
        "longitude": "71.19238050",
        "location": "POINT(71.19238050 22.25865200)"
    },
    {
        "id": "4007",
        "name": "Haryana",
        "country_id": "101",
        "country_code": "IN",
        "country_name": "India",
        "state_code": "HR",
        "type": "state",
        "latitude": "29.05877570",
        "longitude": "76.08560100",
        "location": "POINT(76.08560100 29.05877570)"
    },
    {
        "id": "4020",
        "name": "Himachal Pradesh",
        "country_id": "101",
        "country_code": "IN",
        "country_name": "India",
        "state_code": "HP",
        "type": "state",
        "latitude": "31.10482940",
        "longitude": "77.17339010",
        "location": "POINT(77.17339010 31.10482940)"
    },
    {
        "id": "4025",
        "name": "Jharkhand",
        "country_id": "101",
        "country_code": "IN",
        "country_name": "India",
        "state_code": "JH",
        "type": "state",
        "latitude": "23.61018080",
        "longitude": "85.27993540",
        "location": "POINT(85.27993540 23.61018080)"
    },
    {
        "id": "4026",
        "name": "Karnataka",
        "country_id": "101",
        "country_code": "IN",
        "country_name": "India",
        "state_code": "KA",
        "type": "state",
        "latitude": "15.31727750",
        "longitude": "75.71388840",
        "location": "POINT(75.71388840 15.31727750)"
    },
    {
        "id": "4028",
        "name": "Kerala",
        "country_id": "101",
        "country_code": "IN",
        "country_name": "India",
        "state_code": "KL",
        "type": "state",
        "latitude": "10.85051590",
        "longitude": "76.27108330",
        "location": "POINT(76.27108330 10.85051590)"
    },
    {
        "id": "4039",
        "name": "Madhya Pradesh",
        "country_id": "101",
        "country_code": "IN",
        "country_name": "India",
        "state_code": "MP",
        "type": "state",
        "latitude": "22.97342290",
        "longitude": "78.65689420",
        "location": "POINT(78.65689420 22.97342290)"
    },
    {
        "id": "4008",
        "name": "Maharashtra",
        "country_id": "101",
        "country_code": "IN",
        "country_name": "India",
        "state_code": "MH",
        "type": "state",
        "latitude": "19.75147980",
        "longitude": "75.71388840",
        "location": "POINT(75.71388840 19.75147980)"
    },
    {
        "id": "4010",
        "name": "Manipur",
        "country_id": "101",
        "country_code": "IN",
        "country_name": "India",
        "state_code": "MN",
        "type": "state",
        "latitude": "24.66371730",
        "longitude": "93.90626880",
        "location": "POINT(93.90626880 24.66371730)"
    },
    {
        "id": "4006",
        "name": "Meghalaya",
        "country_id": "101",
        "country_code": "IN",
        "country_name": "India",
        "state_code": "ML",
        "type": "state",
        "latitude": "25.46703080",
        "longitude": "91.36621600",
        "location": "POINT(91.36621600 25.46703080)"
    },
    {
        "id": "4036",
        "name": "Mizoram",
        "country_id": "101",
        "country_code": "IN",
        "country_name": "India",
        "state_code": "MZ",
        "type": "state",
        "latitude": "23.16454300",
        "longitude": "92.93757390",
        "location": "POINT(92.93757390 23.16454300)"
    },
    {
        "id": "4018",
        "name": "Nagaland",
        "country_id": "101",
        "country_code": "IN",
        "country_name": "India",
        "state_code": "NL",
        "type": "state",
        "latitude": "26.15843540",
        "longitude": "94.56244260",
        "location": "POINT(94.56244260 26.15843540)"
    },
    {
        "id": "4013",
        "name": "Odisha",
        "country_id": "101",
        "country_code": "IN",
        "country_name": "India",
        "state_code": "OR",
        "type": "state",
        "latitude": "20.95166580",
        "longitude": "85.09852360",
        "location": "POINT(85.09852360 20.95166580)"
    },
    {
        "id": "4015",
        "name": "Punjab",
        "country_id": "101",
        "country_code": "IN",
        "country_name": "India",
        "state_code": "PB",
        "type": "state",
        "latitude": "31.14713050",
        "longitude": "75.34121790",
        "location": "POINT(75.34121790 31.14713050)"
    },
    {
        "id": "4014",
        "name": "Rajasthan",
        "country_id": "101",
        "country_code": "IN",
        "country_name": "India",
        "state_code": "RJ",
        "type": "state",
        "latitude": "27.02380360",
        "longitude": "74.21793260",
        "location": "POINT(74.21793260 27.02380360)"
    },
    {
        "id": "4034",
        "name": "Sikkim",
        "country_id": "101",
        "country_code": "IN",
        "country_name": "India",
        "state_code": "SK",
        "type": "state",
        "latitude": "27.53297180",
        "longitude": "88.51221780",
        "location": "POINT(88.51221780 27.53297180)"
    },
    {
        "id": "4035",
        "name": "Tamil Nadu",
        "country_id": "101",
        "country_code": "IN",
        "country_name": "India",
        "state_code": "TN",
        "type": "state",
        "latitude": "11.12712250",
        "longitude": "78.65689420",
        "location": "POINT(78.65689420 11.12712250)"
    },
    {
        "id": "4012",
        "name": "Telangana",
        "country_id": "101",
        "country_code": "IN",
        "country_name": "India",
        "state_code": "TG",
        "type": "state",
        "latitude": "18.11243720",
        "longitude": "79.01929970",
        "location": "POINT(79.01929970 18.11243720)"
    },
    {
        "id": "4038",
        "name": "Tripura",
        "country_id": "101",
        "country_code": "IN",
        "country_name": "India",
        "state_code": "TR",
        "type": "state",
        "latitude": "23.94084820",
        "longitude": "91.98815270",
        "location": "POINT(91.98815270 23.94084820)"
    },
    {
        "id": "4022",
        "name": "Uttar Pradesh",
        "country_id": "101",
        "country_code": "IN",
        "country_name": "India",
        "state_code": "UP",
        "type": "state",
        "latitude": "26.84670880",
        "longitude": "80.94615920",
        "location": "POINT(80.94615920 26.84670880)"
    },
    {
        "id": "4016",
        "name": "Uttarakhand",
        "country_id": "101",
        "country_code": "IN",
        "country_name": "India",
        "state_code": "UT",
        "type": "state",
        "latitude": "30.06675300",
        "longitude": "79.01929970",
        "location": "POINT(79.01929970 30.06675300)"
    },
    {
        "id": "4853",
        "name": "West Bengal",
        "country_id": "101",
        "country_code": "IN",
        "country_name": "India",
        "state_code": "WB",
        "type": "state",
        "latitude": "22.98675690",
        "longitude": "87.85497550",
        "location": "POINT(87.85497550 22.98675690)"
    }
]